[{"id":"2725949a-a1a5-45f8-ab29-4605629f9b49","name":"Fairfield","address":"200 Manufacturers Plaza","postcode":null,"city":"Energodar","region":null,"country":"Ukraine","location":{"latitude":47.49865,"longitude":34.6574}},
{"id":"74190840-82d6-4c0c-9e3e-715c389fc66d","name":"Lukken","address":"66855 Bashford Lane","postcode":null,"city":"Novogireyevo","region":null,"country":"Russia","location":{"latitude":55.75378,"longitude":37.81885}},
{"id":"73954bfa-4c30-4c3f-8ac7-cc1e4fd99266","name":"Pepper Wood","address":"98510 Rutledge Court","postcode":null,"city":"PamiÄ…tkowo","region":null,"country":"Poland","location":{"latitude":52.55334,"longitude":16.68094}},
{"id":"38905470-accb-4905-8091-8418f6ea8ed9","name":"Dryden","address":"26241 Mosinee Terrace","postcode":"87090 CEDEX 9","city":"Limoges","region":"Limousin","country":"France","location":{"latitude":45.8315,"longitude":1.2578}},
{"id":"96edb1c4-04fe-463b-b8d0-346226a7b60e","name":"Welch","address":"3 Corscot Drive","postcode":null,"city":"Marystown","region":"Newfoundland and Labrador","country":"Canada","location":{"latitude":47.16663,"longitude":-55.14829}},
{"id":"f9a3451b-39ce-4d23-84c6-2dce8e18e84b","name":"Northfield","address":"39149 Carberry Avenue","postcode":null,"city":"Achanizo","region":null,"country":"Peru","location":{"latitude":-15.80611,"longitude":-73.96694}},
{"id":"fcab7f8d-0d89-43b0-a11a-12415a4bb9c1","name":"Dottie","address":"714 Armistice Alley","postcode":null,"city":"El Mida","region":null,"country":"Tunisia","location":{"latitude":36.72556,"longitude":10.85528}},
{"id":"dbcc6a21-5563-4792-95c3-bfdc446bc17f","name":"Little Fleur","address":"6739 Veith Junction","postcode":null,"city":"Sidomukti","region":null,"country":"Indonesia","location":{"latitude":-8.2051,"longitude":113.8279}},
{"id":"716f14d9-268b-4c3b-8d45-37b22971179e","name":"Prairieview","address":"5 3rd Court","postcode":"0162","city":"Oslo","region":"Oslo","country":"Norway","location":{"latitude":59.9127,"longitude":10.7461}},
{"id":"1f5e2af7-d959-4ff1-8a97-b88bbd51a40f","name":"Forest Dale","address":"4057 Miller Road","postcode":"85732","city":"Tucson","region":"Arizona","country":"United States","location":{"latitude":32.0848,"longitude":-110.7122}},
{"id": "3f06f7a7-dc80-4987-81dd-9cd807008ee5","name":"Manitowish","address":"9 Grim Center","postcode":"987-2224","city":"Yokosuka","region":null,"country":"Japan","location":{"latitude":35.28361,"longitude":139.66722}}]
